County,State,fips,Latitude,Longitude,Confirmed Cases,Deaths
Adair,MISSOURI,29001,40.1769782, -92.6161167,12,
Andrew,MISSOURI,29003,39.9845508, -94.8090258,8,
Atchison,MISSOURI,29005,40.4144817, -95.4359392,2,
Audrain,MISSOURI,29007,39.2226625, -91.8467268,2,
Barry,MISSOURI,29009,36.7033624, -93.8229669,6,
Barton,MISSOURI,29011,37.5040024, -94.3620755,0,
Bates,MISSOURI,29013,38.2612027, -94.3503613,6,
Benton,MISSOURI,29015,38.2930723, -93.3036786,8,
Bollinger,MISSOURI,29017,37.3310468, -90.0296175,4,
Boone,MISSOURI,29019,39.0153926, -92.3307534,100,
Buchanan,MISSOURI,29021,39.6733203, -94.794829,447,
Butler,MISSOURI,29023,36.7151346, -90.4146358,27,
Caldwell,MISSOURI,29025,39.6558966, -93.9997281,3,
Callaway,MISSOURI,29027,38.8491265, -91.9257607,23,
Camden,MISSOURI,29029,38.0323133, -92.7638327,36,
Cape Girardeau,MISSOURI,29031,37.3998985, -89.6918025,51,
Carroll,MISSOURI,29033,39.441912, -93.516971,3,
Carter,MISSOURI,29035,36.9303011, -90.9598933,3,
Cass,MISSOURI,29037,38.6585427, -94.3721539,67,
Cedar,MISSOURI,29039,37.7084225, -93.861222,9,
Chariton,MISSOURI,29041,39.5372927, -92.9524728,5,
Christian,MISSOURI,29043,36.9586087, -93.1692896,20,
Clark,MISSOURI,29045,40.3962004, -91.7362195,1,
Clay,MISSOURI,29047,39.3187409, -94.4046405,92,
Clinton,MISSOURI,29049,39.5975986, -94.4184896,14,
Cole,MISSOURI,29051,38.5189519, -92.2956433,55,
Cooper,MISSOURI,29053,38.8452595, -92.8249579,9,
Crawford,MISSOURI,29055,37.9920098, -91.3156445,8,
Dade,MISSOURI,29057,37.4323036, -93.8406302,0,
Dallas,MISSOURI,29059,37.6832712, -93.0219376,2,
Daviess,MISSOURI,29061,39.9587505, -93.9962662,3,
Dekalb,MISSOURI,29063,39.885757, -94.4078109,3,
Dent,MISSOURI,29065,37.6211924, -91.5167381,0,
Douglas,MISSOURI,29067,36.9433177, -92.5246813,0,
Dunklin,MISSOURI,29069,36.2156534, -90.0591292,24,
Franklin,MISSOURI,29071,38.4021095, -91.0841241,130,
Gasconade,MISSOURI,29073,38.4575789, -91.5177499,2,
Gentry,MISSOURI,29075,40.2044898, -94.4159527,1,
Greene,MISSOURI,29077,37.2671929, -93.3465486,93,
Grundy,MISSOURI,29079,40.1075648, -93.5737817,0,
Harrison,MISSOURI,29081,40.337172, -93.9845199,6,
Henry,MISSOURI,29083,38.3791027, -93.8066565,9,
Hickory,MISSOURI,29085,37.959055, -93.3334746,0,
Holt,MISSOURI,29087,40.0989571, -95.2134565,1,
Howard,MISSOURI,29089,39.1321077, -92.7181732,3,
Howell,MISSOURI,29091,36.766989, -91.9151975,5,
Iron,MISSOURI,29093,37.575509, -90.6953467,2,
Jackson,MISSOURI,29095,39.0355157, -94.3582759,401,
Jasper,MISSOURI,29097,37.176515, -94.3103412,18,
Jefferson,MISSOURI,29099,38.267166, -90.5721889,293,
Johnson,MISSOURI,29101,38.7295547, -93.8161034,63,
Joplin,MISSOURI,None,37.08418, -94.51323,10,
Kansas City,MISSOURI,None,39.100105, -94.5781416,783,
Knox,MISSOURI,29103,40.122723, -92.1573551,0,
Laclede,MISSOURI,29105,37.6475206, -92.6324187,2,
Lafayette,MISSOURI,29107,39.0603689, -93.8151868,62,
Lawrence,MISSOURI,29109,37.1036975, -93.8535681,7,
Lewis,MISSOURI,29111,40.0902418, -91.7013355,6,
Lincoln,MISSOURI,29113,39.0605477, -90.959359,77,
Linn,MISSOURI,29115,39.8652349, -93.1104004,5,
Livingston,MISSOURI,29117,39.7639036, -93.5573919,3,
Macon,MISSOURI,29121,39.8416253, -92.5675118,2,
Madison,MISSOURI,29123,37.4914691, -90.3567669,3,
Maries,MISSOURI,29125,38.1683782, -91.928925,2,
Marion,MISSOURI,29127,39.8080573, -91.6318781,5,
McDonald,MISSOURI,29119,36.6259839, -94.3529462,5,
Mercer,MISSOURI,29129,40.4095007, -93.5788706,0,
Miller,MISSOURI,29131,38.2118765, -92.4343544,3,
Mississippi,MISSOURI,29133,36.837087, -89.3336141,47,
Moniteau,MISSOURI,29135,38.6074608, -92.5851064,44,
Monroe,MISSOURI,29137,39.494421, -91.9896892,0,
Montgomery,MISSOURI,29139,38.9682313, -91.4821326,7,
Morgan,MISSOURI,29141,38.4177341, -92.9183724,7,
New Madrid,MISSOURI,29143,36.5749606, -89.6780945,12,
Newton,MISSOURI,29145,36.9070237, -94.3424195,11,
Nodaway,MISSOURI,29147,40.3483437, -94.8723663,5,
Oregon,MISSOURI,29149,36.6909747, -91.4219804,2,
Osage,MISSOURI,29151,38.4637283, -91.8708392,5,
Ozark,MISSOURI,29153,36.6467816, -92.4575198,0,
Pemiscot,MISSOURI,29155,36.2104949, -89.8351486,65,
Perry,MISSOURI,29157,37.7107349, -89.8430248,45,
Pettis,MISSOURI,29159,38.7346291, -93.2991713,67,
Phelps,MISSOURI,29161,37.913292, -91.8168126,2,
Pike,MISSOURI,29163,39.3683251, -91.1825617,12,
Platte,MISSOURI,29165,39.3770348, -94.7716306,45,
Polk,MISSOURI,29167,37.6200803, -93.4087994,1,
Pulaski,MISSOURI,29169,37.8402606, -92.2248398,36,
Putnam,MISSOURI,29171,40.4890407, -92.9709709,0,
Ralls,MISSOURI,29173,39.552012, -91.547611,1,
Randolph,MISSOURI,29175,39.4418988, -92.5009215,8,
Ray,MISSOURI,29177,39.3661726, -93.9888262,12,
Reynolds,MISSOURI,29179,37.3762658, -90.9659462,2,
Ripley,MISSOURI,29181,36.6478735, -90.8887906,5,
Saline,MISSOURI,29195,39.1256186, -93.2300648,219,
Schuyler,MISSOURI,29197,40.4644896, -92.5152037,0,
Scotland,MISSOURI,29199,40.4479304, -92.1527305,4,
Scott,MISSOURI,29201,37.0516647, -89.5523071,80,
Shannon,MISSOURI,29203,37.1498052, -91.4328245,0,
Shelby,MISSOURI,29205,39.8004535, -92.071021,1,
St. Charles,MISSOURI,29183,38.7877791, -90.6747372,667,
St. Clair,MISSOURI,29185,38.0592942, -93.7945456,2,
St. Francois,MISSOURI,29187,37.7763775, -90.5089041,30,
St. Louis City,MISSOURI,29510,36.247574, -90.040072,1473,
St. Louis County,MISSOURI,29189,38.6398744, -90.5188128,3828,
Ste. Genevieve,MISSOURI,29186,37.88958, -90.1856637,8,
Stoddard,MISSOURI,29207,36.8556646, -89.9451636,29,
Stone,MISSOURI,29209,36.7377156, -93.4555059,3,
Sullivan,MISSOURI,29211,40.1993002, -93.1140993,1,
Taney,MISSOURI,29213,36.6563729, -93.0665776,12,
Texas,MISSOURI,29215,37.3354601, -91.9808332,0,
Vernon,MISSOURI,29217,37.8639924, -94.3800151,4,
Warren,MISSOURI,29219,38.7535106, -91.1453948,24,
Washington,MISSOURI,29221,37.9559513, -90.879099,9,
Wayne,MISSOURI,29223,37.1129133, -90.4809149,0,
Webster,MISSOURI,29225,37.2895151, -92.8792111,16,
Worth,MISSOURI,29227,40.4684837, -94.4176406,1,
Wright,MISSOURI,29229,37.2731008, -92.4765999,10,
TBD,MISSOURI,29,38.7604815, -92.5617875,1,
Boone,MISSOURI,29019,39.0153926, -92.3307534,,1
Buchanan,MISSOURI,29021,39.6733203, -94.794829,,2
Callaway,MISSOURI,29027,38.8491265, -91.9257607,,1
Camden,MISSOURI,29029,38.0323133, -92.7638327,,1
Cape Girardeau,MISSOURI,29031,37.3998985, -89.6918025,,1
Carter,MISSOURI,29035,36.9303011, -90.9598933,,1
Cass,MISSOURI,29037,38.6585427, -94.3721539,,7
Clay,MISSOURI,29047,39.3187409, -94.4046405,,1
Cole,MISSOURI,29051,38.5189519, -92.2956433,,1
Dunklin,MISSOURI,29069,36.2156534, -90.0591292,,2
Franklin,MISSOURI,29071,38.4021095, -91.0841241,,13
Greene,MISSOURI,29077,37.2671929, -93.3465486,,7
Henry,MISSOURI,29083,38.3791027, -93.8066565,,1
Jackson,MISSOURI,29095,39.0354087, -94.3582755,,14
Jefferson,MISSOURI,29099,38.267166, -90.5721889,,10
Kansas City,MISSOURI,None,39.100105, -94.5781416,,16
Lafayette,MISSOURI,29107,39.0603689, -93.8151868,,1
Lewis,MISSOURI,29111,40.0902418, -91.7013355,,1
Lincoln,MISSOURI,29113,39.0605477, -90.959359,,1
Linn,MISSOURI,29115,39.8652349, -93.1104004,,1
Newton,MISSOURI,29145,36.9070237, -94.3424195,,1
Pemiscot,MISSOURI,29155,36.2104949, -89.8351486,,3
Pulaski,MISSOURI,29169,37.8402606, -92.2248398,,1
Scott,MISSOURI,29201,37.0516647, -89.5523071,,6
St. Charles,MISSOURI,29183,38.7877791, -90.6747372,,33
St. Francois,MISSOURI,29187,37.7763775, -90.5089041,,1
St. Louis City,MISSOURI,29510,36.247574, -90.040072,,88
St. Louis County,MISSOURI,29189,38.6398744, -90.5188128,,266
Ste. Genevieve,MISSOURI,29186,37.88958, -90.1856637,,1
Taney,MISSOURI,29213,36.6563729, -93.0665776,,2
Washington,MISSOURI,29221,37.9559513, -90.879099,,1
TBD,MISSOURI,None,32.1977941, -110.819898,,1
